city,name,price,latitude,longitude,url
Lahore,Modern 1BHK Studio/Opus/CentralGulberg/SelfCheckin,N/A,31.501503606323197,74.33602675795555,https://airbnb.com/rooms/1389747277952780100
Lahore,Dream Suite#1 - Gulberg,N/A,31.50963414860015,74.35155674815178,https://airbnb.com/rooms/1258081446736128686
Lahore,Arteo Cozy City-Center Studio in Gulberg Beige,N/A,31.5174375,74.3364375,https://airbnb.com/rooms/1183425209856390598
Lahore,Twilight | Self Check-In | 1 BR | DHA Phase 6,N/A,31.47184,74.44139,https://airbnb.com/rooms/1351534597862084662
Lahore,Luxury Cozy Studio Apartment with Eiffel View,N/A,31.36409474059429,74.1811770109939,https://airbnb.com/rooms/1405904061695378648
Lahore,Supa Home (Room # 1),N/A,31.4725,74.37648,https://airbnb.com/rooms/1280923595099292360
Lahore,Supa Home (Room # 2),N/A,31.47233,74.37812,https://airbnb.com/rooms/1280944214289626143
Lahore,Mirhaa Homes Apartment #2 DHA-4 Gold crest mall,N/A,31.466102319174624,74.38161321108399,https://airbnb.com/rooms/1164211748758052812
Lahore,Mirhaa Homes Apartment # 4 DHA-4 Gold Crest Mall,N/A,31.468483967144632,74.38592953116222,https://airbnb.com/rooms/1465094503179810477
Lahore,Cresta Delux Apartment,N/A,31.358838550699264,74.18089092327166,https://airbnb.com/rooms/1404952534625433894
Lahore,Arteo Downtown Cozy Studio in the Heart of Gulberg,N/A,31.5174305,74.33642669999999,https://airbnb.com/rooms/1262194528285294451
Lahore,Luxury Oyster Apartment,N/A,31.519581276399002,74.35677033758772,https://airbnb.com/rooms/1387226361149230506
Lahore,Designer suite | Panoramic view,N/A,31.37769933212377,74.18679602444172,https://airbnb.com/rooms/1443456824015129110
Lahore,Jack n Jill # 3 DHA-4 Lahore,N/A,31.4647,74.38554,https://airbnb.com/rooms/835399638206443101
Lahore,"Penthouse in Gold Crest Mall - Skyline Views, DHA",N/A,31.466691263946892,74.38191063702106,https://airbnb.com/rooms/840449325776414807
Lahore,"DaisyDot Room 1 - Smart self checkin, DHA",N/A,31.465663551073046,74.38248932361603,https://airbnb.com/rooms/738271155570936173
Lahore,Cozy Studio Apt | City Centre | 1 min from mm alam,N/A,31.517153594590642,74.33653233757325,https://airbnb.com/rooms/1333984342007307222
Lahore,Into the Galaxy | 2 BHK  | Travel Pin,N/A,31.357427175577186,74.17943637647988,https://airbnb.com/rooms/1358936011977968043
Lahore,Designer 1BHK/Pool/Gym/Self-Checkin/Gulberg/Lahore,N/A,31.49920095007677,74.3356742709243,https://airbnb.com/rooms/1467812779557205198
Lahore,Arteo Luna Safe 1 Bed  City Center  Gulbeg 3 Clean,N/A,31.516032251127243,74.33899889682004,https://airbnb.com/rooms/1379772476601361296
Lahore,Aesthetic Studio| Opus Gulberg,N/A,31.50104,74.33605,https://airbnb.com/rooms/1452897083918321992
Lahore,Luxury 1BHK Studio/Opus/SelfCheckin/Gulberg/Lahore,N/A,31.502011601416736,74.33732272021545,https://airbnb.com/rooms/1439276756177333455
Lahore,Sunny & Spacious 1 BHK individual apartment,N/A,31.517445857590587,74.33639182276353,https://airbnb.com/rooms/1258107344763562178
Lahore,Mirhaa Homes Apartment #2 Gulberg-3 Zameen Aurum,N/A,31.497881365637845,74.33466721326113,https://airbnb.com/rooms/1373924292635806259
Lahore,Go peaceful in Behria,N/A,31.364412532443254,74.18413334050722,https://airbnb.com/rooms/1208642903133743188
Lahore,Cozy 1BR | Pool & Rooftop | Gulberg 3,N/A,31.4964954,74.3412465,https://airbnb.com/rooms/1466003371543038874
Lahore,"Elegant Studio - Gold Crest Mall, DHA",N/A,31.46760052791577,74.38151501119137,https://airbnb.com/rooms/980202769529126103
Lahore,Luxury Private Studio Apt | location |Gulberg,N/A,31.51700279122154,74.3436828822431,https://airbnb.com/rooms/1271796176421483997
Lahore,13th Flr | Amazing Balcony View | Gold Crest | DHA,N/A,31.467660607295226,74.38254408524897,https://airbnb.com/rooms/1430291501221199800
Lahore,Luxury Apartment in Gulberg with City Center Views,N/A,31.50262820477679,74.33500584214926,https://airbnb.com/rooms/1433406713239853525
Lahore,Studio Apartment in Gold Crest - DHA Lahore,N/A,31.46513,74.38365,https://airbnb.com/rooms/1457963494913932744
Lahore,Luxury 2BR Apartment in DHA Lahore | Families only,N/A,31.4539179263541,74.36907729477726,https://airbnb.com/rooms/1335304925764453008
Lahore,Jack n Jill # 1 DHA-4 Lahore,N/A,31.462343892853255,74.38400611281395,https://airbnb.com/rooms/702912025811871557
Lahore,Elysian Terrace|Penthouse Cabin|DHA|Self Check-In,N/A,31.4636091,74.38364399999999,https://airbnb.com/rooms/1035668390153644887
Lahore,Luxe 2.5 Bed | Stylish | Goldcrest | DHA,N/A,31.467784429472896,74.38128438777333,https://airbnb.com/rooms/1450704383814823859
Lahore,Cozy and Modern Studio Apt in Goldcrest Mall,N/A,31.466347693251137,74.38176216718139,https://airbnb.com/rooms/1360935355785072751
Lahore,3BR | City Views | Balcony | The Opus Gulberg 3,N/A,31.50138,74.3348,https://airbnb.com/rooms/1237486670981362053
Lahore,Studio Luxe | Heart of Lahore | Gulberg CBD,N/A,31.50212,74.33579,https://airbnb.com/rooms/1455337944558997776
Lahore,1 BHK | King Bed | Private Balcony | Opus Gulberg,N/A,31.50153806079256,74.3352694136049,https://airbnb.com/rooms/1290450157958916390
Lahore,Indigo Sukoon | 1-BHK | Gulberg CBD,N/A,31.501540011772814,74.33497606195291,https://airbnb.com/rooms/1457838753622581165
Lahore,Indigo Sukoon | 1-BHK | Gulberg CBD,N/A,31.501540011772814,74.33497606195291,https://airbnb.com/rooms/1457838753622581165
Lahore,Modern Comfort: 2-BR House in DHA Phase 5 LHR,N/A,31.471635357317435,74.41630854086759,https://airbnb.com/rooms/1159463490419536536
Lahore,Luxury 1BHK APT/SelfCheckin/Indigo/Gulberg/Lahore,N/A,31.50158,74.33715,https://airbnb.com/rooms/1439002734706552381
Lahore,Cozy 1BR | Pool & Rooftop | Gulberg 3,N/A,31.4964954,74.3412465,https://airbnb.com/rooms/1466003371543038874
Lahore,"Serene 1BHK
Central Gulberg | Self check-in
WiFi | Pool",N/A,31.498602314875466,74.33497402493786,https://airbnb.com/rooms/1417673419257953239
Lahore,Homestead Luxury/Self check-in/Soundproof,N/A,31.3628498,74.1880642,https://airbnb.com/rooms/1355140857109756794
Lahore,Supa Home (Room # 4),N/A,31.47158,74.37743,https://airbnb.com/rooms/1280955344436063983
Lahore,Cozy Room With Terrace Access Near Raya,N/A,31.45457,74.45099,https://airbnb.com/rooms/1362487393232557233
Lahore,Sunny & Spacious | city centre | 1 BHK apartment,N/A,31.518648048055276,74.33659136295319,https://airbnb.com/rooms/1176893026350150479
Lahore,Luxury Elite Apartment with Exclusive Views Bahria,N/A,31.365124685373445,74.18762113898993,https://airbnb.com/rooms/1337811893064682104
Lahore,Luxury 1-Bed Apartment with Balcony in Gold Crest,N/A,31.4676397,74.3852181,https://airbnb.com/rooms/1335487566025190053
Lahore,"Modern 1BHK Studio
Self-Checkin | Indigo Gulberg",N/A,31.502409472161926,74.33535817424364,https://airbnb.com/rooms/1399424025625444684
Lahore,Cozy Studio | Penta P5 | Self-Checkin. | Wifi | Cafe,N/A,31.46086709860322,74.4153131772461,https://airbnb.com/rooms/1437094170134887479
Lahore,Studio Apartment in Lahore Bahria Town,N/A,31.3629,74.1816,https://airbnb.com/rooms/1468292098178641490
Lahore,Stay with Abdullah - Room 2,N/A,31.47970386568104,74.39314084221355,https://airbnb.com/rooms/1460016817821425634
Lahore,Elegant 1BR Apartment in Central Gulberg,N/A,31.498510150105847,74.33640699313834,https://airbnb.com/rooms/1355224636957685220
Lahore,Magnum: Gold Crest One Bed Apt,N/A,31.46668830085537,74.38165985047817,https://airbnb.com/rooms/1126487360666123456
Lahore,Luxury Cozy Studio Apartment with Eiffel View #2,N/A,31.36299300507844,74.18181382119656,https://airbnb.com/rooms/1456009126801554412
Lahore,Chaand Sifarish|Pool & Gym|Gulberg|Self Check-IN,N/A,31.499336635345323,74.33467439989967,https://airbnb.com/rooms/1314563872578157952
Lahore,1RK| Modern Nest | Self Check-in,N/A,31.362108950251216,74.17889021337032,https://airbnb.com/rooms/1452766674688747908
Lahore,Stay with Abdullah - Room 2,N/A,31.47970386568104,74.39314084221355,https://airbnb.com/rooms/1460016817821425634
Lahore,Luxury Cozy Studio Apartment with Eiffel View #2,N/A,31.36299300507844,74.18181382119656,https://airbnb.com/rooms/1456009126801554412
Lahore,Modern 2bd Apartment with Pool,N/A,31.4545853,74.3683804,https://airbnb.com/rooms/1357508968508927494
Lahore,Supa Home (Room # 3),N/A,31.47158,74.37743,https://airbnb.com/rooms/1280963061707600893
Lahore,1RK| Midnight Shadows| Self check-in,N/A,31.362849855453465,74.18806403875351,https://airbnb.com/rooms/1471635343043063680
Lahore,Restful 1BHK • Garden facing Balcony • Pentasquare,N/A,31.46178019101003,74.41581888970309,https://airbnb.com/rooms/1300059930605258107
Lahore,"The Mono Loft | Cozy Netflix, w/Gym and Parking.",N/A,31.41872218341374,74.22736980021,https://airbnb.com/rooms/1442706029426396314
Lahore,Iced Peach: 1BHK| Indigo| Gulberg,N/A,31.50367,74.33605,https://airbnb.com/rooms/1436755905158656687
Lahore,Grey Bliss 1BHK Bahria Town Apartment,N/A,31.4872575,74.3472327,https://airbnb.com/rooms/1465727837923339411
Lahore,Peaceful & Luxury 1BR | Library & Cinema Access,N/A,31.46618,74.40096,https://airbnb.com/rooms/1409022994590768811
Lahore,12th Floor | Balcony | Penta Square | Tower A DHA,N/A,31.46196,74.41456,https://airbnb.com/rooms/1043583178310656844
Lahore,The Starlight Suite | Travel Pin,N/A,31.375368137710588,74.17369242757559,https://airbnb.com/rooms/1201611094530737623
Lahore,2BHK-Oyster Court Gulberg,N/A,31.51914,74.35738,https://airbnb.com/rooms/1280461659197829563
Lahore,Luxury 1BR With Prime Location,N/A,31.371498810360322,74.18423686176538,https://airbnb.com/rooms/1456711364042788419
Lahore,Luxe Vista 1-BHK Apt | Heart of Lahore | Gulberg,N/A,31.50342090761568,74.3338699186972,https://airbnb.com/rooms/1307673933569407681
Lahore,Chic 1BR Apartment | The Opus,N/A,31.50191,74.33576,https://airbnb.com/rooms/1239016747242029704
Lahore,Modern and Luxury 1BHK Studio/Self Checkin/Eiffle,N/A,31.363467598633953,74.181289951595,https://airbnb.com/rooms/1337505168159229546
Lahore,Dark Elegance 2BR | Pool • Gym • Netflix Ready,N/A,31.41901,74.22707,https://airbnb.com/rooms/1417537663597414272
Lahore,Luxurious House | 2 BHK | Phase 5 | DHA,N/A,31.466340539813825,74.41957520176022,https://airbnb.com/rooms/1326680054069410583
Lahore,"10th Floor w/  Balcony in Gold Crest Mall, DHA",N/A,31.467774850966862,74.38174802809954,https://airbnb.com/rooms/921664548525321406
Lahore,Luxury 1BR With Prime Location,N/A,31.371498810360322,74.18423686176538,https://airbnb.com/rooms/1456711364042788419
Lahore,Modern Nest – Tranquil Designer 1BR,N/A,31.367147338746438,74.1884694927547,https://airbnb.com/rooms/1429843056937425734
Lahore,"Serene 1BHK
Central Gulberg | Self check-in
WiFi | Pool",N/A,31.498602314875466,74.33497402493786,https://airbnb.com/rooms/1417673419257953239
Lahore,1RK| Modern Nest | Self Check-in,N/A,31.362108950251216,74.17889021337032,https://airbnb.com/rooms/1452766674688747908
Lahore,Luxury and Spacious 1BR | Library & Cinema Access,N/A,31.467597832275974,74.39908655035448,https://airbnb.com/rooms/1408335319349012422
Lahore,Grey Bliss 1BHK Bahria Town Apartment,N/A,31.4872575,74.3472327,https://airbnb.com/rooms/1465727837923339411
Lahore,Modern 2bd Apartment with Pool,N/A,31.4545853,74.3683804,https://airbnb.com/rooms/1357508968508927494
Lahore,Charming Private Room in a Stylish & Serene Home.,N/A,31.480685474760012,74.46144342957676,https://airbnb.com/rooms/1414507499919617954
Lahore,2BHK-Oyster Court Gulberg,N/A,31.51914,74.35738,https://airbnb.com/rooms/1280461659197829563
Lahore,Cozy Room With Terrace Access Near Raya,N/A,31.45457,74.45099,https://airbnb.com/rooms/1362487393232557233
Lahore,"Modern 1BHK Studio
Self-Checkin | Indigo Gulberg",N/A,31.502409472161926,74.33535817424364,https://airbnb.com/rooms/1399424025625444684
Lahore,2 Bed w/Balcony @ GoldCrest Mall DHA,N/A,31.46704,74.38214,https://airbnb.com/rooms/1162452628349527448
Lahore,Cozy Apartment with a King Bed,N/A,31.365064725742865,74.18734095966546,https://airbnb.com/rooms/1465847165628664864
Lahore,Cozy and Modern Studio Apt in Goldcrest Mall,N/A,31.466347693251137,74.38176216718139,https://airbnb.com/rooms/1360935355785072751
Lahore,Homestead Luxury/Self check-in/Soundproof,N/A,31.3628498,74.1880642,https://airbnb.com/rooms/1355140857109756794
Lahore,Intimate Couples Retreat,N/A,31.46778,74.38801,https://airbnb.com/rooms/971677217587317794
Lahore,"Luxury Studio
Self-Check-in | Pool | Gulberg
Balcony| Wifi",N/A,31.49995,74.33455,https://airbnb.com/rooms/1336824135262697635
Lahore,Modern Panoramic apartment | DHA | Mall access,N/A,31.4614051028426,74.41499806821164,https://airbnb.com/rooms/1216058270844904145
Lahore,Modern and Luxury 1BHK Studio/Self Checkin/Eiffle,N/A,31.363467598633953,74.181289951595,https://airbnb.com/rooms/1337505168159229546
Lahore,Magnum: Gold Crest One Bed Apt,N/A,31.46668830085537,74.38165985047817,https://airbnb.com/rooms/1126487360666123456
Islamabad,Modern 2-Bedroom Abode with Outdoor & Dual Spaces,N/A,33.49589,73.08677,https://airbnb.com/rooms/950789373104178345
Islamabad,Aurora Retreat | 1BHK | F-11/1,N/A,33.682498940766216,72.98780970275402,https://airbnb.com/rooms/1457794944467443431
Islamabad,The DownTown Den | 1BHK Deluxe Suite | E-11,N/A,33.70140833673994,72.97275715631112,https://airbnb.com/rooms/1465842288602672487
Islamabad,Flamingo presidential apartment,N/A,33.68172,72.99014,https://airbnb.com/rooms/975367327288508350
Islamabad,Luxury 1BHK in F11| Prime Location| Cozy Stay!,N/A,33.6829058,72.9882842,https://airbnb.com/rooms/1389240663520004995
Islamabad,1 Bed Designer Suite in Elysium,N/A,33.70642884990107,73.05102702230215,https://airbnb.com/rooms/1366658762166172894
Islamabad,Apartment in a Comfy & Cozy House@ Islamabad (007),N/A,33.6822366,73.0102793,https://airbnb.com/rooms/733948259370145957
Islamabad,BlueOak Residences | Bathtub | Central | Gym,N/A,33.681345,72.98945189999999,https://airbnb.com/rooms/1081504637248775020
Islamabad,Cheerful Exclusive B&B  @ heart of Islamabad.003,N/A,33.6816761946899,73.01061887294054,https://airbnb.com/rooms/581703137932548906
Islamabad,2 BD Designer Apt | Islamabad and Mountain Views,N/A,33.71795921910857,73.07035241663054,https://airbnb.com/rooms/1466666662042866600
Islamabad,2BHK Designer Suit | Savoy,N/A,33.68197,72.99018,https://airbnb.com/rooms/1466795889314466758
Islamabad,Flamingo Grand Apartments,N/A,33.68446,72.98508,https://airbnb.com/rooms/828525698928053495
Islamabad,The Designers Den. Opposite to Centaurus Mall,N/A,33.70618,73.05179,https://airbnb.com/rooms/596385701609304100
Islamabad,2BHK with hill and lake view in Mall of Islamabad,N/A,33.71312556039716,73.06041307747364,https://airbnb.com/rooms/1434524388555417797
Islamabad,The Noir Niche - Central - Self Checkin,N/A,33.70004,73.00894,https://airbnb.com/rooms/1451642120138990653
Islamabad,The Grey Inn-2BHK/Netflix/Wifi/Balcony/AC/Lockbox,N/A,33.6968192,72.9813251,https://airbnb.com/rooms/1204108136330055639
Islamabad,"Sapphire|Loft by WanderNest Suites 
B3 Heights+Gym",N/A,33.49835,73.07256,https://airbnb.com/rooms/1471594717592325508
Islamabad,2BHK + 3AC's + Skyline Terrace + Private Car Park,N/A,33.52470342516159,73.09137707530566,https://airbnb.com/rooms/1418011150763324138
Islamabad,The Vaulted Retreat!,N/A,33.727153,73.0628022,https://airbnb.com/rooms/1220569594990522536
Islamabad,Luxury Apartment in Islamabad Opposite Centaurus,N/A,33.7072,73.05261,https://airbnb.com/rooms/873045018671865613
Islamabad,Top-Floor 2 Bed Apt in Riverloft by Aviators Den,N/A,33.52488132926135,73.09011284261942,https://airbnb.com/rooms/1450605442404495367
Islamabad,Cheerful Exclusive B&B  @ heart of Islamabad. 002,N/A,33.681553,73.010681,https://airbnb.com/rooms/557485966392673767
Islamabad,2BHK with hill and lake view in Mall of Islamabad,N/A,33.71312556039716,73.06041307747364,https://airbnb.com/rooms/1434524388555417797
Islamabad,Designer 1Bed Apartment by TheDeny’s,N/A,33.52083304446401,73.0995006555344,https://airbnb.com/rooms/1101888665347641624
Islamabad,Luxe Loft 5: Chic 1 bed apartmnt,N/A,33.52101,73.09813,https://airbnb.com/rooms/1454534749108303824
Islamabad,Skyhigh residences MOI,N/A,33.713409260746936,73.05937420058928,https://airbnb.com/rooms/1444359344393065611
Islamabad,Designer Den | Centaurus mall |Gym+pool | Xbox,N/A,33.70735,73.05247,https://airbnb.com/rooms/944710440221499319
Islamabad,Centaurus residence,N/A,33.70829,73.04903,https://airbnb.com/rooms/1460262410961515856
Islamabad,Chic downtown,N/A,33.68220124651219,72.99038462340832,https://airbnb.com/rooms/1445029717991274090
Islamabad,Clean & Comfy 2BR Apartment,N/A,33.70176392179912,72.96837408095598,https://airbnb.com/rooms/1406289876482776027
Islamabad,Luxury one Bedroom Apartment with Mini Theatre,N/A,33.68046,72.98877,https://airbnb.com/rooms/967914171974113594
Islamabad,Private Suite - Bahria Heights 1 *self check in*,N/A,33.56553,73.11606,https://airbnb.com/rooms/579414187990645650
Islamabad,Luxury Apartment in Islamabad Opposite Centaurus,N/A,33.7072,73.05261,https://airbnb.com/rooms/873045018671865613
Islamabad,2BHK + 3AC's + Skyline Terrace + Private Car Park,N/A,33.52470342516159,73.09137707530566,https://airbnb.com/rooms/1418011150763324138
Islamabad,Turkish Lady's 2 bed apartment in F-11 Islamabad,N/A,33.68134501629294,72.98945188522339,https://airbnb.com/rooms/1091783865588854970
Islamabad,Sitara Bed Room,N/A,33.6973,72.97218,https://airbnb.com/rooms/745299425314660805
Islamabad,UNA Elysium 1Bed Apt| w/Stunning City Views,N/A,33.706132698617616,73.05186690124724,https://airbnb.com/rooms/1381746149376911987
Islamabad,Designer 2BHK with City Views | SkyPark One,N/A,33.60205817711104,73.15889647239142,https://airbnb.com/rooms/1466200887053642506
Islamabad,Chic City Condo,N/A,33.7038402,72.9801976,https://airbnb.com/rooms/959885443661911966
Islamabad,Greek house Mykonos | Ground | 2BR | Heart of Isb,N/A,33.68832853342248,72.99254011362791,https://airbnb.com/rooms/1432822764087166244
Islamabad,Askin Royal F11 Islamabad (1BHK) 44,N/A,33.68360035679599,72.98666110135494,https://airbnb.com/rooms/1279063105638047570
Islamabad,2 Bhk Majestic Loft | Bahria P7 | Near Food Street,N/A,33.51326,73.08476,https://airbnb.com/rooms/1451407026245002892
Islamabad,Executive Escape : 2BHK | Central /Netflix/balcony,N/A,33.6808832,72.9893894,https://airbnb.com/rooms/1376652641133581582
Islamabad,SkyPark One | Luxury 2BR W/PS5+75-Inch Smart TV,N/A,33.602553742434445,73.15952822093877,https://airbnb.com/rooms/1445177477975691037
Islamabad,"The Garden view, with pvt entrance",N/A,33.709108027832706,73.03763710403769,https://airbnb.com/rooms/810676507463853064
Islamabad,Flamingo Royale Apartments,N/A,33.68267,72.99159,https://airbnb.com/rooms/725601687598980131
Islamabad,The Serene | 2BHK,N/A,33.68065546450594,72.98995147380575,https://airbnb.com/rooms/1416670608596233033
Islamabad,Elysium Heights-Chic & elevated,N/A,33.7066151026572,73.0502750266324,https://airbnb.com/rooms/1459261168605520000
Islamabad,The Minimalist 3,N/A,33.69899838578853,73.00975036433724,https://airbnb.com/rooms/1249401669416426270
Islamabad,Cozy 3BHK Apartment | Executive Heights,N/A,33.68173992314273,72.9915999545902,https://airbnb.com/rooms/1376212915188408941
Islamabad,2BHK Luxurious Apartment | Executive Heights,N/A,33.68235802409372,72.99112558364868,https://airbnb.com/rooms/1310741381622419658
Islamabad,Clean & Comfy 2BR Apartment,N/A,33.70176392179912,72.96837408095598,https://airbnb.com/rooms/1406289876482776027
Islamabad,Designer 1Bed Apartment by TheDeny’s,N/A,33.52083304446401,73.0995006555344,https://airbnb.com/rooms/1101888665347641624
Islamabad,Greek house Mykonos | Upper | 3BR | Heart of Isb,N/A,33.688334670811635,72.99258269369602,https://airbnb.com/rooms/1433097108746209250
Islamabad,Designer Den | Centaurus mall |Gym+pool | Xbox,N/A,33.70735,73.05247,https://airbnb.com/rooms/944710440221499319
Islamabad,Cheerful Private B&B @ Luxury House@ Islamabad 001,N/A,33.68166500938122,73.0104309069453,https://airbnb.com/rooms/578788289772984553
Islamabad,Executive Presidential Apartment - 3BHK,N/A,33.68112,72.99012,https://airbnb.com/rooms/1327262931384811244
Islamabad,Luxe Loft 5: Chic 1 bed apartmnt,N/A,33.52101,73.09813,https://airbnb.com/rooms/1454534749108303824
Islamabad,"Luxury Living Centaurus, Chic Elegant Serene 1 Bed",N/A,33.70701,73.05054,https://airbnb.com/rooms/804085485131078601
Islamabad,Affordable 1BR Apt | Wi-Fi | TV,N/A,33.7002791,72.9727778,https://airbnb.com/rooms/1436819140958243527
Islamabad,Greek house Mykonos | Upper | 3BR | Heart of Isb,N/A,33.688334670811635,72.99258269369602,https://airbnb.com/rooms/1433097108746209250
Islamabad,"Luxury Living Centaurus, Chic Elegant Serene 1 Bed",N/A,33.70701,73.05054,https://airbnb.com/rooms/804085485131078601
Islamabad,Cozy 3BHK Apartment | Executive Heights,N/A,33.68173992314273,72.9915999545902,https://airbnb.com/rooms/1376212915188408941
Islamabad,"Rooftop Studio F-6, Secure with Private access",N/A,33.72598,73.07366,https://airbnb.com/rooms/45630117
Islamabad,Designer 2BHK with City Views | SkyPark One,N/A,33.60205817711104,73.15889647239142,https://airbnb.com/rooms/1466200887053642506
Islamabad,Sunset Presidential Suite in Elysium Opp Centaurus,N/A,33.7072,73.04909,https://airbnb.com/rooms/1227479969131732435
Islamabad,Executive Presidential Apartment - 3BHK,N/A,33.68112,72.99012,https://airbnb.com/rooms/1327262931384811244
Islamabad,“The Chic Chamber” 1BHK easy access GFloor,N/A,33.69854,73.00988,https://airbnb.com/rooms/48253119
Islamabad,Elysium 2BR | Xbox | Centaurus + Mountain Views,N/A,33.7059577829269,73.05103171616793,https://airbnb.com/rooms/1405082593436917358
Islamabad,Smart BHK with Balcony,N/A,33.6075857,73.1666604,https://airbnb.com/rooms/1214491741798520583
Islamabad,Central Views F-7 Spacious ! Private Garden,N/A,33.72298979005489,73.06678834782817,https://airbnb.com/rooms/1253638432138045579
Islamabad,Executive Heights| 2BHK,N/A,33.682045019349935,72.99153730273247,https://airbnb.com/rooms/873258999407452263
Islamabad,Sky ParkOne | Game & Chill Retreat | 2BR Pool+ PS4,N/A,33.602088776484266,73.1587053090334,https://airbnb.com/rooms/1383906847752327896
Islamabad,Affordable 1BR Apt | Wi-Fi | TV,N/A,33.7002791,72.9727778,https://airbnb.com/rooms/1436819140958243527
Islamabad,Private Luxury Villa in Central Islamabad,N/A,33.71640385266908,73.07446994993363,https://airbnb.com/rooms/1450787269319615539
Islamabad,Sukoon Residency | 1 BHK Bougie | Bahria Heights 1,N/A,33.56727,73.11609,https://airbnb.com/rooms/1442041190261605679
Islamabad,"Exquisite Rooms F-7 Islamabad, English Home R#102",N/A,33.72067,73.06109,https://airbnb.com/rooms/48372560
Islamabad,Eden 3,N/A,33.70009,73.00982,https://airbnb.com/rooms/1318812345104856621
Islamabad,Luxury 2BHK with balcony,N/A,33.68133,72.99,https://airbnb.com/rooms/1124629390600210614
Islamabad,Luxury studio appartment no 002.,N/A,33.68212239767482,72.98982530961315,https://airbnb.com/rooms/1420145954467092065
Islamabad,Skyhigh residences MOI,N/A,33.713409260746936,73.05937420058928,https://airbnb.com/rooms/1444359344393065611
Islamabad,The Attic | Studio with pvt entrance and jacuzzi,N/A,33.709108027832706,73.03763710403769,https://airbnb.com/rooms/662902020902275256
Islamabad,Cheerful Private B&B @ Luxury House@ Islamabad 001,N/A,33.68166500938122,73.0104309069453,https://airbnb.com/rooms/578788289772984553
Islamabad,Tranquility Escape@7star heights 1BHK Self checkin,N/A,33.49915,73.07196,https://airbnb.com/rooms/1435666542116370582
Islamabad,A Classy 1BR Retreat – Bahria Town Phase 4,N/A,33.5435134,73.1142828,https://airbnb.com/rooms/1389830929442605131
Islamabad,1 Bed in Elysium Downtown Isd,N/A,33.707468900248,73.05243015289307,https://airbnb.com/rooms/927650673753848669
Islamabad,The Cozy Retreat-One Bed Studio in F10,N/A,33.698747739903126,73.00910117392894,https://airbnb.com/rooms/1455887730841427918
Islamabad,Nesto Premium 1BR Apartment F-11,N/A,33.68145655705862,72.98879665376303,https://airbnb.com/rooms/1467939627358624292
Islamabad,Cozy 2 Bedroom Condo Retreat,N/A,33.515102134952826,73.15409425646067,https://airbnb.com/rooms/1177312156503382342
Islamabad,The loft 1BR | Prime Location | Coffee shop| Cozy,N/A,33.70762,73.05128,https://airbnb.com/rooms/711652163285894909
Islamabad,one bed luxury furnished apartment,N/A,33.64453,72.97613,https://airbnb.com/rooms/749756063335292239
Islamabad,"Exquisite Rooms F-7 Islamabad, English Home R#102",N/A,33.72067,73.06109,https://airbnb.com/rooms/48372560
Islamabad,"Moonlight II | 1BHK | Pool, Sauna, Gymnasium",N/A,33.56664107521504,73.11684641987085,https://airbnb.com/rooms/1461570458332493734
Islamabad,Stylish 1BHK | Self Check-in | Family-Ready,N/A,33.49899,73.07158,https://airbnb.com/rooms/1455990622678163893
Islamabad,The Quiet Cube,N/A,33.69429,73.21589,https://airbnb.com/rooms/1231028611245161217
Islamabad,The Soho 1BR | lower | Margalla view,N/A,33.6993,72.98131,https://airbnb.com/rooms/962372577770901880
Islamabad,2BR |Park view | Brnd new| Unit 2|,N/A,33.71864615494904,73.214363185339,https://airbnb.com/rooms/1384856355437751286
Islamabad,'11 Loft' Designer 1 BHK luxury apartment,N/A,33.566246,73.1167502,https://airbnb.com/rooms/1240300543087232300
Islamabad,Sky ParkOne | Luxury 1BR + Pool & Netflix,N/A,33.60134092023557,73.15913741295653,https://airbnb.com/rooms/1372673039211799556
Islamabad,'11 loft 02'- Designer 1 BHK luxury apartment,N/A,33.520623,73.0985295,https://airbnb.com/rooms/1290675033712490716
Rawalpindi,Modern 2-Bedroom Abode with Outdoor & Dual Spaces,N/A,33.49589,73.08677,https://airbnb.com/rooms/950789373104178345
Rawalpindi,"Sapphire|Loft by WanderNest Suites 
B3 Heights+Gym",N/A,33.49835,73.07256,https://airbnb.com/rooms/1471594717592325508
Rawalpindi,The Oliver Sky Suite,N/A,33.49954052106317,73.06958992034197,https://airbnb.com/rooms/1437098997055640391
Rawalpindi,Stylish 1BHK | Self Check-in | Family-Ready,N/A,33.49899,73.07158,https://airbnb.com/rooms/1455990622678163893
Rawalpindi,Velora Nest Retreat:Self Check-In Bahria,N/A,33.49225,73.07941,https://airbnb.com/rooms/1404327516316400536
Rawalpindi,Studio apt | 7 star heights | Safest,N/A,33.49923,73.07071,https://airbnb.com/rooms/1406627057201360291
Rawalpindi,A Cozy Studio Escape – Bahria Town Phase 4,N/A,33.5435134,73.1142828,https://airbnb.com/rooms/1304933741466095217
Rawalpindi,Downtown Serene - A Luxury Suite in B3 Heights Rwp,N/A,33.498285,73.07240089999999,https://airbnb.com/rooms/1466050232288479197
Rawalpindi,Emerald| Garnet Wandernest Suite at B3 Heights+Gym,N/A,33.498165517782,73.07226240634918,https://airbnb.com/rooms/1456468058063911736
Rawalpindi,"Dune | Cozy 1BHK, Self Check-In",N/A,33.566559987,73.1167502,https://airbnb.com/rooms/1420278332550702526
Rawalpindi,Comfy 1BHK Bahria town Rawalpindi | Self CheckIn,N/A,33.5501996,73.1229142,https://airbnb.com/rooms/1209440078557281054
Rawalpindi,Ruby | Amber WanderNest Suite at B3 Heights+GYM,N/A,33.5009032,73.0921755,https://airbnb.com/rooms/1414374041294920119
Rawalpindi,Maskan Dens | Luxury & Comfort | Self Check-In,N/A,33.499420006986234,73.06950658420848,https://airbnb.com/rooms/1421031753695701572
Rawalpindi,1BHK Cozy Apt | self check in,N/A,33.566969050963195,73.11746902763844,https://airbnb.com/rooms/1114329711347062192
Rawalpindi,Designer 1Bed Apartment by TheDeny’s,N/A,33.52083304446401,73.0995006555344,https://airbnb.com/rooms/1101888665347641624
Rawalpindi,Luxe Loft 5: Chic 1 bed apartmnt,N/A,33.52101,73.09813,https://airbnb.com/rooms/1454534749108303824
Rawalpindi,"Sunlit Serenity:Nordic themed, selfcheck-in Bahria",N/A,33.5142375,73.08523439999999,https://airbnb.com/rooms/1153511607120061830
Rawalpindi,"Moonlight II | 1BHK | Pool, Sauna, Gymnasium",N/A,33.56664107521504,73.11684641987085,https://airbnb.com/rooms/1461570458332493734
Rawalpindi,The Greige: Designer 1BHK Apt |Self Check-In |Safe,N/A,33.56776,73.11759,https://airbnb.com/rooms/1360255623361866229
Rawalpindi,Sukoon Residency | 1 BHK Bougie | Bahria Heights 1,N/A,33.56727,73.11609,https://airbnb.com/rooms/1442041190261605679
Rawalpindi,Emerald| Garnet Wandernest Suite at B3 Heights+Gym,N/A,33.498165517782,73.07226240634918,https://airbnb.com/rooms/1456468058063911736
Rawalpindi,"Luxzam Serenity:
Self Check-in  1 BHK  in Bahria.",N/A,33.49853,73.0696105,https://airbnb.com/rooms/1239974531504249140
Rawalpindi,1BHK Cozy Apt | self check in,N/A,33.566969050963195,73.11746902763844,https://airbnb.com/rooms/1114329711347062192
Rawalpindi,Stylish 1BHK | Self Check-in | Family-Ready,N/A,33.49899,73.07158,https://airbnb.com/rooms/1455990622678163893
Rawalpindi,2BHK + 3AC's + Garden Front + Private Car Park,N/A,33.52438,73.09045,https://airbnb.com/rooms/1102931973064067316
Rawalpindi,"Moonlight | 1BHK | Pool, Sauna, Gymnasium",N/A,33.566869327043115,73.11687022447586,https://airbnb.com/rooms/1334087767888037092
Rawalpindi,The Royale - 1BHK Designer Suite | Self Check-in,N/A,33.5666588986422,73.11683914986018,https://airbnb.com/rooms/1371560320129176203
Rawalpindi,Luxury 1BHK Apartment in Bahria Town,N/A,33.5423129,73.1217173,https://airbnb.com/rooms/1434961769922660271
Rawalpindi,"1Bed Designer Apt | Pool, Sauna",N/A,33.566575816943896,73.11653352532461,https://airbnb.com/rooms/1263000977411423849
Rawalpindi,Top-Floor 2 Bed Apt in Riverloft by Aviators Den,N/A,33.52488132926135,73.09011284261942,https://airbnb.com/rooms/1450605442404495367
Rawalpindi,Maskan Dens | Luxury & Comfort | Self Check-In,N/A,33.499420006986234,73.06950658420848,https://airbnb.com/rooms/1421031753695701572
Rawalpindi,Restova Studio Apartment | Self Check In,N/A,33.51718015263022,73.10714051127434,https://airbnb.com/rooms/1387769012198551631
Rawalpindi,"Sunlit Serenity:Nordic themed, selfcheck-in Bahria",N/A,33.5142375,73.08523439999999,https://airbnb.com/rooms/1153511607120061830
Rawalpindi,The Tranquility Escape 2BHK |Self check-in| bahria,N/A,33.51596646842088,73.1085920609671,https://airbnb.com/rooms/1447607940987411460
Rawalpindi,CPL 203 l 2BHK l Home Cinema,N/A,33.5208529054238,73.10666870556338,https://airbnb.com/rooms/1418598412944379889
Rawalpindi,The Walnut: 1BHK Luxury Apt | Self Checkin,N/A,33.56601808548254,73.11663921922445,https://airbnb.com/rooms/1063573610192775267
Rawalpindi,A Cozy Studio Stay – Bahria Town Phase 4,N/A,33.54406,73.11343,https://airbnb.com/rooms/1436231014833230954
Rawalpindi,Zenith | Pearl Residence | 2 BED | Self Check In,N/A,33.51522373104275,73.08430921286345,https://airbnb.com/rooms/1257356131267725107
Rawalpindi,The Velvet Stay | Cozy 1BR + Balcony | Phase 7,N/A,33.516195810945305,73.08483858753776,https://airbnb.com/rooms/1247028115080536854
Rawalpindi,Designer | 1400 sq ft | 2BHK by CloudNine,N/A,33.520414780018186,73.08919116854668,https://airbnb.com/rooms/1465362511918347103
Rawalpindi,Designer | 1400 sq ft | 2BHK by CloudNine,N/A,33.520414780018186,73.08919116854668,https://airbnb.com/rooms/1465362511918347103
Rawalpindi,1BHK Next To Eiffel Tower | Self Check-In |,N/A,33.51391,73.08448,https://airbnb.com/rooms/1257314858780193200
Rawalpindi,Stylish Studio & Sauna | Pavilion 99 |Self Checkin,N/A,33.54444297921782,73.11494878123408,https://airbnb.com/rooms/1446193904962400177
Rawalpindi,'11 loft 02'- Designer 1 BHK luxury apartment,N/A,33.520623,73.0985295,https://airbnb.com/rooms/1290675033712490716
Rawalpindi,"Moonlight II | 1BHK | Pool, Sauna, Gymnasium",N/A,33.56664107521504,73.11684641987085,https://airbnb.com/rooms/1461570458332493734
Rawalpindi,The Greige: Designer 1BHK Apt |Self Check-In |Safe,N/A,33.56776,73.11759,https://airbnb.com/rooms/1360255623361866229
Rawalpindi,Luxury 1BR | Self Check-in | Bahria Islamabad,N/A,33.499835832854785,73.07179830121585,https://airbnb.com/rooms/1395070799444342812
Rawalpindi,Modern 1BHK cozy apt,N/A,33.56640417888694,73.11677902936935,https://airbnb.com/rooms/1427437373330237249
Rawalpindi,The DownTown Den | 1BHK Deluxe Suite | E-11,N/A,33.70140833673994,72.97275715631112,https://airbnb.com/rooms/1465842288602672487
Rawalpindi,Modern 2BHK Retreat | Self Check-in | Family Ready,N/A,33.49923802390811,73.07173564019341,https://airbnb.com/rooms/1406634254114607510
Rawalpindi,Studio Luxé - Bahria Living | Self Check-in,N/A,33.49854,73.06983,https://airbnb.com/rooms/1341413218799812496
Rawalpindi,Cozy Studio Bahria Town Rawalpindi | Self Checkin,N/A,33.55158125565293,73.12303323135221,https://airbnb.com/rooms/1103404627175229929
Rawalpindi,Stay Luxe | Cozy Studio Retreat | Self Check-In,N/A,33.516070807118005,73.10686790425639,https://airbnb.com/rooms/1418841945587387421
Rawalpindi,NovaLuxe Stays 1 bed Luxury apartment for families,N/A,33.543602273499985,73.1141672283411,https://airbnb.com/rooms/1465649440804566012
Rawalpindi,A Classy 1BR Retreat – Bahria Town Phase 4,N/A,33.5435134,73.1142828,https://airbnb.com/rooms/1389830929442605131
Rawalpindi,Sydney: Skyline Sanctuary,N/A,33.49710237296165,73.06719425556788,https://airbnb.com/rooms/1397442883618887500
Rawalpindi,Gray House,N/A,33.5794843,73.0995874,https://airbnb.com/rooms/1101989747673686940
Rawalpindi,The Oaks Eiffel View | 2 Bhk | Near Food Street,N/A,33.513869469770526,73.08616301772624,https://airbnb.com/rooms/1166430890276843831
Rawalpindi,"900 sq feet Comfy apartment, scintillating view",N/A,33.5493718,73.1253732,https://airbnb.com/rooms/1410746685382260136
Rawalpindi,The Cozy Grey - 1BR Modern Apt | Self Checkin,N/A,33.551434100717955,73.12349427491426,https://airbnb.com/rooms/1329233403638620975
Rawalpindi,'11 loft 03'- Designer 1 Bed luxury apartment,N/A,33.49888936865978,73.07083681225777,https://airbnb.com/rooms/1410764417137795741
Rawalpindi,Studio Luxé - Bahria Living | Self Check-in,N/A,33.49854,73.06983,https://airbnb.com/rooms/1341413218799812496
Rawalpindi,The Serene | 1BHK,N/A,33.566246,73.1167502,https://airbnb.com/rooms/1218054247333615480
Rawalpindi,CPL 501 l Luxury Penthouse |Home theater|,N/A,33.521094031106955,73.1061002341986,https://airbnb.com/rooms/1440997857096811550
Rawalpindi,The Chic Suite - Classy 1BHK - Self Check-in /Safe,N/A,33.49984,73.07115,https://airbnb.com/rooms/1441502738674119496
Rawalpindi,Tranquility Escape@7star heights 1BHK Self checkin,N/A,33.49915,73.07196,https://airbnb.com/rooms/1435666542116370582
Rawalpindi,Top-Floor 2 Bed Apt in Riverloft by Aviators Den,N/A,33.52488132926135,73.09011284261942,https://airbnb.com/rooms/1450605442404495367
Rawalpindi,ASH LOFT: BHK Bahria 8,N/A,33.49752,73.06542,https://airbnb.com/rooms/1473059619867783784
Rawalpindi,The Perfect 1 BHK | Self-Checkin | Safe And Secure,N/A,33.49963016921286,73.06789536629638,https://airbnb.com/rooms/1340643677363950502
Rawalpindi,Luxury 1BHK Apartment Bharia Town | Self Checkin,N/A,33.55125,73.1233,https://airbnb.com/rooms/1328363392403072720
Rawalpindi,The Sage | 1BHK Luxury Apartment,N/A,33.56564,73.11606,https://airbnb.com/rooms/1420916658198602574
Rawalpindi,Private Suite - Bahria Heights 1 *self check in*,N/A,33.56553,73.11606,https://airbnb.com/rooms/579414187990645650
Rawalpindi,The DownTown Den | 1BHK Deluxe Suite | E-11,N/A,33.70140833673994,72.97275715631112,https://airbnb.com/rooms/1465842288602672487
Rawalpindi,Beautiful 2 Bed Apt in Phase 6,N/A,33.55547,73.13543,https://airbnb.com/rooms/1468365084767229997
Rawalpindi,CPL 305 l 1BHK l Home Cinema,N/A,33.54597,73.13472,https://airbnb.com/rooms/1418583695857632183
Rawalpindi,Urban Nook Family Room with Privacy & Free Parking,N/A,33.58842793337797,73.08649279654007,https://airbnb.com/rooms/1404882620958257377
Rawalpindi,Stay Luxe | Stylish 1BHK Retreat with Comfort,N/A,33.49975190592265,73.06903022818152,https://airbnb.com/rooms/1473170309177893381
Rawalpindi,2 Bhk Majestic Loft | Bahria P7 | Near Food Street,N/A,33.51326,73.08476,https://airbnb.com/rooms/1451407026245002892
Rawalpindi,DE ELEVÈ 02'- Designer 1 Bed Luxury Apartment,N/A,33.50167704805562,73.07210012241359,https://airbnb.com/rooms/1349433927006518318
Rawalpindi,Bright & Cozy 1BHK | Fast WiFi :Central Location,N/A,33.56708,73.11771,https://airbnb.com/rooms/51464637
Rawalpindi,"Grey as
Smoke- 1BHK Modern Condo | Self Checkin",N/A,33.56646949400157,73.11711498042601,https://airbnb.com/rooms/1231173313204690438
Rawalpindi,The Emerald - Contemporary 1BHK | Self Checkin,N/A,33.5662884,73.1170205,https://airbnb.com/rooms/1115306573506875660
Rawalpindi,Marbles by 2ndHome (Equipped with foot massager),N/A,33.5165256,73.1108949,https://airbnb.com/rooms/1274076504520793004
Rawalpindi,Emerald Escape I Modern 1BR Apt I Private Balcony,N/A,33.4981352,73.0660793,https://airbnb.com/rooms/1419363249663520318
Rawalpindi,The Chic Suite - Classy 1BHK - Self Check-in /Safe,N/A,33.49984,73.07115,https://airbnb.com/rooms/1441502738674119496
Rawalpindi,The Blackout - 1BHK Massive Apt | Self Checkin,N/A,33.566402445861854,73.11708279391783,https://airbnb.com/rooms/1294298693107200969
Rawalpindi,The Grey,N/A,33.649119265219426,72.9544135183096,https://airbnb.com/rooms/1147052428701090471
Rawalpindi,Oak & Linen | 2BR | City View | Balcony,N/A,33.5255,73.09129,https://airbnb.com/rooms/1454814463423840675
Rawalpindi,Feathers by 2ndHome,N/A,33.51657302025221,73.11103440821171,https://airbnb.com/rooms/1315513632338875384
Rawalpindi,The Silver Stone:1 BHK Bahria 8,N/A,33.4994905,73.06266389999999,https://airbnb.com/rooms/1473081993447898818
Rawalpindi,Fully Furnished Apartment | 1BHK | Self Check-in,N/A,33.56727843325252,73.11563907573847,https://airbnb.com/rooms/1425281499082371747
Rawalpindi,"Greyish & black 1BHK
Ground floor
Bahria Town Ph 8",N/A,33.49240190272146,73.07714255518907,https://airbnb.com/rooms/1382159687646583368
Rawalpindi,Private Suite - Bahria Heights 1 *self check in*,N/A,33.56553,73.11606,https://airbnb.com/rooms/579414187990645650
Rawalpindi,Mills Ultra Luxury 1BHK Suite | Self Checkin,N/A,33.51573805510356,73.11117575679896,https://airbnb.com/rooms/1356651783689149389
Rawalpindi,CPL 101 l Executive Studio l Home Cinema,N/A,33.51910875355951,73.10636082273626,https://airbnb.com/rooms/1418594021385544445
Rawalpindi,Single Bed | Self Check in |Gulberg Greens,N/A,33.61498558552608,73.17044265318187,https://airbnb.com/rooms/1449143832785209884
Rawalpindi,Luxury 1BHK Condo in BT | 2 Balconies | MysticDens,N/A,33.49727033927559,73.07074794232787,https://airbnb.com/rooms/1386892384421186263
Rawalpindi,SkyHigh Luxury | Pool & Sauna,N/A,33.55575905864715,73.16651858389378,https://airbnb.com/rooms/1418300627542489097
Rawalpindi,Casablanca: Earthly Hues,N/A,33.4981352,73.0660793,https://airbnb.com/rooms/1397154423377751005
Rawalpindi,Eighteen Islamabad,N/A,33.59652,72.88109,https://airbnb.com/rooms/1414919040949638394
